[{"address":"Taiwan","lat":23.69781,"lng":120.960515},{"address":"Australia","lat":-25.274398,"lng":133.775136},{"address":"Bolivia","lat":-16.290154,"lng":-63.58865299999999},{"address":"Kappel Bay,Australia","lat":-23.3891667,"lng":150.8975},{"address":"Bahia Honda,Panama","lat":9.316995,"lng":-82.15776509999999},{"address":"Marau Sound,Solomon Islands","lat":-9.856008,"lng":160.8293863},{"address":"Tampa Bay,Ruskin,U.S.A.","lat":27.7208633,"lng":-82.4331495},{"address":"New Guinea","lat":-5.0122202,"lng":141.3470159},{"address":"Iceland","lat":64.963051,"lng":-19.020835},{"address":"New Zealand","lat":-40.900557,"lng":174.885971},{"address":"Ella Bay","lat":-17.4513889,"lng":146.0675},{"address":"Caribbean Sea","lat":14.5401107,"lng":-74.9676365},{"address":"Red Sea,Eliat,Israel","lat":29.5549786,"lng":34.952657},{"address":"Vancouver Island,Canada","lat":49.6506376,"lng":-125.4493906},{"address":"Papua New Guinea","lat":-6.314992999999999,"lng":143.95555},{"address":"Long Island Sound,U.S.A.","lat":41.0748454,"lng":-72.94605659999999},{"address":"Andros Island,Bahamas","lat":24.7063805,"lng":-78.0195387},{"address":"South Africa","lat":-30.559482,"lng":22.937506},{"address":"Philippines","lat":12.879721,"lng":121.774017},{"address":"Galapagos Islands,Ecuador","lat":-0.383106,"lng":-90.4233344},{"address":"U.S.A.","lat":37.09024,"lng":-95.712891},{"address":"Locke County,U.S.A.","lat":41.0534302,"lng":-73.5387341},{"address":"Malay Archipelago,Malaysia","lat":4.210484,"lng":101.975766},{"address":"Byrdstown,U.S.A.","lat":36.5745104,"lng":-85.1288435},{"address":"Salem,Fulton County,U.S.A.","lat":36.3711763,"lng":-91.82264789999999},{"address":"Margate,U.S.A.","lat":26.2445263,"lng":-80.206436},{"address":"Columbus,U.S.A.","lat":39.9611755,"lng":-82.99879419999999},{"address":"near Louisville,Jefferson County,U.S.A.","lat":38.2526647,"lng":-85.7584557},{"address":"Neha Bay,Olympic Peninsula,U.S.A.","lat":47.750087,"lng":-123.7510225},{"address":"China Sea,Con Son Island,Vietnam","lat":8.7009282,"lng":106.6114474},{"address":"Barbados","lat":13.193887,"lng":-59.543198},{"address":"Arafura Sea","lat":-8.7762905,"lng":136.2091547},{"address":"Uruguay","lat":-32.522779,"lng":-55.765835},{"address":"Red Sea","lat":20.280232,"lng":38.512573},{"address":"Abaco Island,Bahamas","lat":26.3555029,"lng":-77.1485163},{"address":"Bahamas","lat":25.03428,"lng":-77.39627999999999},{"address":"Treasure Bay,Abaco Island,Bahamas","lat":26.3555029,"lng":-77.1485163},{"address":"Admirality Islands,Rambutyo Island ,Papua New Guinea","lat":-2.3094516,"lng":147.8140428},{"address":"Admirality Islands,Papua New Guinea","lat":-2.1993879,"lng":147.1013188},{"address":"Admirality Islands,Manus,Papua New Guinea","lat":-2.0941169,"lng":146.8760951},{"address":"Admirality Islands,Manus Island,Papua New Guinea","lat":-2.0941169,"lng":146.8760951},{"address":"Admirality Islands,Manus Island, ,Papua New Guinea","lat":-2.0941169,"lng":146.8760951},{"address":"Adriatic Sea","lat":41.85509039999999,"lng":17.2902839},{"address":"Adriatic Sea | Mediterranean Sea","lat":41.85509039999999,"lng":17.2902839},{"address":"Gulf of Aden,Djibouti","lat":12.533115,"lng":47.922363},{"address":"Tanzania","lat":-6.369028,"lng":34.888822},{"address":"Mauritius","lat":-20.348404,"lng":57.55215200000001},{"address":"Luanda,Angola","lat":-8.839987599999999,"lng":13.2894368},{"address":"N'Gor near Dakar,Senegal","lat":14.7441621,"lng":-17.5120556},{"address":"Jeffreys Bay,South Africa","lat":-34.0506714,"lng":24.9101544},{"address":"Marshall Bay,Liberia","lat":6.3405203,"lng":-10.7427343},{"address":"Kenya","lat":-0.023559,"lng":37.906193},{"address":"Freetown,Sierra Leone","lat":8.4656765,"lng":-13.2317225},{"address":"Abidjan,Ivory Coast","lat":5.3599517,"lng":-4.0082563},{"address":"Senegal","lat":14.497401,"lng":-14.452362},{"address":"Makatumba,Tanzania","lat":-6.2918578,"lng":31.2340866},{"address":"Democratic Republic of the Congo","lat":-4.038333,"lng":21.758664},{"address":"Mozambique","lat":-18.665695,"lng":35.529562},{"address":"Nacala,Mozambique","lat":-14.5656065,"lng":40.6854309},{"address":"Morocco","lat":31.791702,"lng":-7.092619999999999},{"address":"N'Gor,Senegal","lat":14.7441621,"lng":-17.5120556},{"address":"Aitutaki,Cook Islands","lat":-18.8579523,"lng":-159.7852843},{"address":"Juneau,U. S. A.","lat":58.3019444,"lng":-134.4197221},{"address":"Mediterranean Sea,Algeria","lat":34.5531284,"lng":18.0480105},{"address":"Mediterranean Sea,Oran,Algeria","lat":35.6970697,"lng":-0.6307988},{"address":"Algeria","lat":28.033886,"lng":1.659626},{"address":"Mediterranean Sea,Algiers,Algeria","lat":36.753768,"lng":3.0587561},{"address":"Mediterranean Sea,Oran, ,Algeria","lat":35.6970697,"lng":-0.6307988},{"address":"Mediterranean Sea,Cherchell,Algeria","lat":36.567504,"lng":2.2039933},{"address":"Mediterranean Sea,Bou Ismail,Algeria","lat":36.6381992,"lng":2.7033575},{"address":"Amami Islands,Japan","lat":28.2666667,"lng":129.35},{"address":"Mediterranean Sea,Algiers, ,Algeria","lat":36.753768,"lng":3.0587561},{"address":"U. S. A. Territory: American Samoa","lat":20.8875817,"lng":-156.4759333},{"address":"Pago Pago,Alongside Rainmaker Hotel,,U. S. A. Territory: American Samoa","lat":-14.2782029,"lng":-170.6821998},{"address":"Ancona,Italy","lat":43.6158299,"lng":13.518915},{"address":"Andaman Islands,India","lat":11.7400867,"lng":92.6586401},{"address":"Andaman Sea,Andaman Islands,India","lat":11.6688679,"lng":92.7326674},{"address":"Andaman Islands,Port Blair,India","lat":11.6233774,"lng":92.7264828},{"address":"Andaman Sea","lat":11.2878883,"lng":95.7299821},{"address":"Bay of Bengal,Andaman Sea","lat":11.2878883,"lng":95.7299821},{"address":"Andaman Sea,Thailand","lat":11.2878883,"lng":95.7299821},{"address":"Andaman Sea,Andaman Islands,Port Blair,India","lat":11.6233774,"lng":92.7264828},{"address":"Bay of Bengal,Andaman Sea,India","lat":11.2878883,"lng":95.7299821},{"address":"Lobito Bay ,Angola","lat":-12.3388946,"lng":13.5697229},{"address":"Lobito,Angola","lat":-12.3757287,"lng":13.5610451},{"address":"Angola","lat":-11.202692,"lng":17.873887},{"address":"Lobito ,Angola","lat":-12.3757287,"lng":13.5610451},{"address":"Baia do Cacuao,Luanda,Angola","lat":-8.819464,"lng":13.216964},{"address":"Baia das Pipas,Angola","lat":-14.9510659,"lng":12.1924565},{"address":"Santiago Bay,Angola","lat":-33.3559121,"lng":-70.7419768},{"address":"Barra do Dande,Angola","lat":-8.4162307,"lng":13.7289167},{"address":"Corimba Bay,Luanda,Angola","lat":-8.8800777,"lng":13.191417},{"address":"Palmeirinhas,Angola","lat":-9.167307,"lng":13.052978},{"address":"Ilha ,Luanda,Angola","lat":-8.7866667,"lng":13.2322222},{"address":"Luanda,off Ilha de Luanda,Angola","lat":-8.7866667,"lng":13.2322222},{"address":"Corimba ,Luanda,Angola","lat":-8.8800777,"lng":13.191417},{"address":" ,Angola","lat":-11.202692,"lng":17.873887},{"address":"Palmeirinhas Bay,south,Angola","lat":-19.8281021,"lng":-44.1458863},{"address":"Palmeirinhas ,Angola","lat":-9.167307,"lng":13.052978},{"address":"Ilha ,Angola","lat":-8.7866667,"lng":13.2322222},{"address":"Sao Tome Island,Angola","lat":0.2602568,"lng":6.621061099999999},{"address":"Saco Mar,Angola","lat":-15.1203725,"lng":12.14393},{"address":"Pipas Bay,Angola","lat":38.7862976,"lng":-9.169414699999999},{"address":"Ihla ,Angola","lat":-8.7866667,"lng":13.2322222},{"address":"Baia dos Tigres ,Angola","lat":-16.5921976,"lng":11.6954435},{"address":"Mussulo Bay,Angola","lat":-9.0709074,"lng":13.0033493},{"address":"Cacuaco ,Angola","lat":-8.8055918,"lng":13.3471775},{"address":"Cacuaco,Angola","lat":-8.8055918,"lng":13.3471775},{"address":"Cacuaco Bay ,Angola","lat":-8.7795661,"lng":13.3212045},{"address":"Corimba Bay ,Luanda,Angola","lat":-8.8800777,"lng":13.191417},{"address":"Mussulo Bay ,Luanda,Angola","lat":-8.963758,"lng":13.051758},{"address":"Harbor of Luanda,Angola","lat":-8.802204099999999,"lng":13.2425943},{"address":"Corimba Bay ,Angola","lat":-8.8800777,"lng":13.191417},{"address":"Mussolo Bay,Angola","lat":-9.0709074,"lng":13.0033493},{"address":"Mussolo Bay,Luanda,Angola","lat":-8.963758,"lng":13.051758},{"address":"Samba,Angola","lat":-8.8803638,"lng":13.1964632},{"address":"Port Alexandre ,Angola","lat":-15.8040232,"lng":11.844982},{"address":"Novo Redondo,Angola","lat":-11.2122554,"lng":13.8477121},{"address":"Barra do Dande ,Angola","lat":-8.4162307,"lng":13.7289167},{"address":"Cucuaco ,Angola","lat":-8.8055918,"lng":13.3471775},{"address":"Baia Farta,Angola","lat":-12.6101319,"lng":13.1942224},{"address":"Santa Maria Bay,Angola","lat":-13.4209709,"lng":12.5336838}]